{
"type": "FeatureCollection",
"name": "stations",
"crs": { "type": "name", "properties": { "name": "urn:ogc:def:crs:OGC:1.3:CRS84" } },
"features": [
{ "type": "Feature", "properties": { "name": "SpjelkavikelvaMouth" }, "geometry": { "type": "Point", "coordinates": [ 6.38897640755861, 62.466002576479298 ] } },
{ "type": "Feature", "properties": { "name": "RVP" }, "geometry": { "type": "Point", "coordinates": [ 6.39044268955389, 62.468937536892199 ] } },
{ "type": "Feature", "properties": { "name": "VasstrandliaPump" }, "geometry": { "type": "Point", "coordinates": [ 6.41742313864305, 62.471192822273203 ] } },
{ "type": "Feature", "properties": { "name": "Profiler" }, "geometry": { "type": "Point", "coordinates": [ 6.46133638526032, 62.474527705285396 ] } },
{ "type": "Feature", "properties": { "name": "Norebotnen" }, "geometry": { "type": "Point", "coordinates": [ 6.56530845409076, 62.4838318846028 ] } }
]
}
